dist_id,id,district,state,lat,lon,notes
d1001,1001, SK Flensburg, Schleswig-Holstein,54.7805,9.4352,
d1002,1002, SK Kiel, Schleswig-Holstein,54.3227,10.1359,
d1003,1003, SK Lübeck, Schleswig-Holstein,53.8696,10.6876,
d1004,1004, SK Neumünster, Schleswig-Holstein,54.074,9.9845,
d1051,1051, LK Dithmarschen, Schleswig-Holstein,54.1474,9.1114,
d1053,1053, LK Herzogtum Lauenburg, Schleswig-Holstein,53.6013,10.5866,
d1054,1054, LK Nordfriesland, Schleswig-Holstein,54.6354,8.7241,
d1055,1055, LK Ostholstein, Schleswig-Holstein,54.1767,10.8476,
d1056,1056, LK Pinneberg, Schleswig-Holstein,53.7279,9.698,
d1057,1057, LK Plön, Schleswig-Holstein,54.1591,10.4113,
d1058,1058, LK Rendsburg-Eckernförde, Schleswig-Holstein,54.2791,9.7887,
d1059,1059, LK Schleswig-Flensburg, Schleswig-Holstein,54.6311,9.556,
d1060,1060, LK Segeberg, Schleswig-Holstein,53.9232,10.1612,
d1061,1061, LK Steinburg, Schleswig-Holstein,53.9409,9.5158,
d1062,1062, LK Stormarn, Schleswig-Holstein,53.7215,10.3586,
d2000,2000, SK Hamburg, Hamburg,53.5544,9.9946,
d3101,3101, SK Braunschweig, Niedersachsen,52.269,10.526,
d3102,3102, SK Salzgitter, Niedersachsen,52.1497,10.3367,
d3103,3103, SK Wolfsburg, Niedersachsen,52.4379,10.7664,
d3151,3151, LK Gifhorn, Niedersachsen,52.5264,10.6081,
d3152,3152, LK Göttingen (alt), Niedersachsen,51.5369,9.8568,
d3153,3153, LK Goslar, Niedersachsen,51.9084,10.4464,
d3154,3154, LK Helmstedt, Niedersachsen,52.2391,10.9186,
d3155,3155, LK Northeim, Niedersachsen,51.7347,9.8778,
d3157,3157, LK Peine, Niedersachsen,52.3203,10.2434,
d3158,3158, LK Wolfenbüttel, Niedersachsen,52.1642,10.5403,
d3159,3159, LK Göttingen, Niedersachsen,51.5316,10.0144,
d3241,3241, Region Hannover, Niedersachsen,52.3845,9.727,
d3251,3251, LK Diepholz, Niedersachsen,52.6887,8.6947,
d3252,3252, LK Hameln-Pyrmont, Niedersachsen,52.0896,9.3875,
d3254,3254, LK Hildesheim, Niedersachsen,52.0621,9.8937,
d3255,3255, LK Holzminden, Niedersachsen,51.8901,9.5422,
d3256,3256, LK Nienburg (Weser), Niedersachsen,52.6118,9.1553,
d3257,3257, LK Schaumburg, Niedersachsen,52.294,9.2145,
d3351,3351, LK Celle, Niedersachsen,52.6169,10.0634,
d3352,3352, LK Cuxhaven, Niedersachsen,53.6118,8.8279,
d3353,3353, LK Harburg, Niedersachsen,53.3085,9.9718,
d3354,3354, LK Lüchow-Dannenberg, Niedersachsen,53.0245,11.0349,
d3355,3355, LK Lüneburg, Niedersachsen,53.2448,10.4674,
d3356,3356, LK Osterholz, Niedersachsen,53.2621,8.8303,
d3357,3357, LK Rotenburg (Wümme), Niedersachsen,53.2526,9.3126,
d3358,3358, LK Heidekreis, Niedersachsen,52.8217,9.6601,
d3359,3359, LK Stade, Niedersachsen,53.5993,9.4728,
d3360,3360, LK Uelzen, Niedersachsen,52.9983,10.5764,
d3361,3361, LK Verden, Niedersachsen,52.967,9.1117,
d3401,3401, SK Delmenhorst, Niedersachsen,53.0525,8.6331,
d3402,3402, SK Emden, Niedersachsen,53.3603,7.2049,
d3403,3403, SK Oldenburg, Niedersachsen,53.1501,8.2098,
d3404,3404, SK Osnabrück, Niedersachsen,52.2818,8.0437,
d3405,3405, SK Wilhelmshaven, Niedersachsen,53.5312,8.1059,
d3451,3451, LK Ammerland, Niedersachsen,53.2184,8.0007,
d3452,3452, LK Aurich, Niedersachsen,53.4764,7.4842,
d3453,3453, LK Cloppenburg, Niedersachsen,52.8936,7.909,
d3454,3454, LK Emsland, Niedersachsen,52.759,7.4565,
d3455,3455, LK Friesland, Niedersachsen,53.458,8.0243,
d3456,3456, LK Grafschaft Bentheim, Niedersachsen,52.4647,7.0103,
d3457,3457, LK Leer, Niedersachsen,53.2502,7.4563,
d3458,3458, LK Oldenburg, Niedersachsen,52.9479,8.4922,
d3459,3459, LK Osnabrück, Niedersachsen,52.3917,7.9956,
d3460,3460, LK Vechta, Niedersachsen,52.6645,8.228,
d3461,3461, LK Wesermarsch, Niedersachsen,53.3367,8.4317,
d3462,3462, LK Wittmund, Niedersachsen,53.5776,7.7741,
d4011,4011, SK Bremen, Bremen,53.0852,8.8199,
d4012,4012, SK Bremerhaven, Bremen,53.5502,8.5824,
d5111,5111, SK Düsseldorf, Nordrhein-Westfalen,51.2205,6.8122,
d5112,5112, SK Duisburg, Nordrhein-Westfalen,51.4351,6.763,
d5113,5113, SK Essen, Nordrhein-Westfalen,51.4624,7.0087,
d5114,5114, SK Krefeld, Nordrhein-Westfalen,51.3389,6.5853,
d5116,5116, SK Mönchengladbach, Nordrhein-Westfalen,51.1801,6.4423,
d5117,5117, SK Mülheim a.d.Ruhr, Nordrhein-Westfalen,51.4312,6.8805,
d5119,5119, SK Oberhausen, Nordrhein-Westfalen,51.4966,6.8514,
d5120,5120, SK Remscheid, Nordrhein-Westfalen,51.1833,7.2,
d5122,5122, SK Solingen, Nordrhein-Westfalen,51.1704,7.0545,
d5124,5124, SK Wuppertal, Nordrhein-Westfalen,51.2613,7.163,
d5154,5154, LK Kleve, Nordrhein-Westfalen,51.6271,6.2734,
d5158,5158, LK Mettmann, Nordrhein-Westfalen,51.251,6.974,
d5162,5162, LK Rhein-Kreis Neuss, Nordrhein-Westfalen,51.1521,6.6354,
d5166,5166, LK Viersen, Nordrhein-Westfalen,51.2555,6.3965,
d5170,5170, LK Wesel, Nordrhein-Westfalen,51.5936,6.6103,
d5314,5314, SK Bonn, Nordrhein-Westfalen,50.7333,7.1,
d5315,5315, SK Köln, Nordrhein-Westfalen,50.9333,6.95,
d5316,5316, SK Leverkusen, Nordrhein-Westfalen,51.05,7.0167,
d5334,5334, StadtRegion Aachen, Nordrhein-Westfalen,50.7667,6.1,
d5358,5358, LK Düren, Nordrhein-Westfalen,50.8233,6.44,
d5362,5362, LK Rhein-Erft-Kreis, Nordrhein-Westfalen,50.9033,6.7633,
d5366,5366, LK Euskirchen, Nordrhein-Westfalen,50.5606,6.6333,
d5370,5370, LK Heinsberg, Nordrhein-Westfalen,51.0417,6.1167,
d5374,5374, LK Oberbergischer Kreis, Nordrhein-Westfalen,51.0128,7.5179,
d5378,5378, LK Rheinisch-Bergischer Kreis, Nordrhein-Westfalen,51.0354,7.1708,
d5382,5382, LK Rhein-Sieg-Kreis, Nordrhein-Westfalen,50.7595,7.1965,
d5512,5512, SK Bottrop, Nordrhein-Westfalen,51.529,6.9434,
d5513,5513, SK Gelsenkirchen, Nordrhein-Westfalen,51.5175,7.0857,
d5515,5515, SK Münster, Nordrhein-Westfalen,51.9517,7.6252,
d5554,5554, LK Borken, Nordrhein-Westfalen,51.9461,6.9147,
d5558,5558, LK Coesfeld, Nordrhein-Westfalen,51.8636,7.3848,
d5562,5562, LK Recklinghausen, Nordrhein-Westfalen,51.5932,7.2079,
d5566,5566, LK Steinfurt, Nordrhein-Westfalen,52.1478,7.3436,
d5570,5570, LK Warendorf, Nordrhein-Westfalen,51.8756,7.9679,
d5711,5711, SK Bielefeld, Nordrhein-Westfalen,52.0215,8.5457,
d5754,5754, LK Gütersloh, Nordrhein-Westfalen,51.9423,8.359,
d5758,5758, LK Herford, Nordrhein-Westfalen,52.1178,8.6796,
d5762,5762, LK Höxter, Nordrhein-Westfalen,51.7776,9.3771,
d5766,5766, LK Lippe, Nordrhein-Westfalen,51.9766,8.9865,
d5770,5770, LK Minden-Lübbecke, Nordrhein-Westfalen,52.3212,8.7121,
d5774,5774, LK Paderborn, Nordrhein-Westfalen,51.7191,8.7575,
d5911,5911, SK Bochum, Nordrhein-Westfalen,51.4679,7.1965,
d5913,5913, SK Dortmund, Nordrhein-Westfalen,51.5043,7.4837,
d5914,5914, SK Hagen, Nordrhein-Westfalen,51.3672,7.4634,
d5915,5915, SK Hamm, Nordrhein-Westfalen,51.6735,7.816,
d5916,5916, SK Herne, Nordrhein-Westfalen,51.5372,7.2011,
d5954,5954, LK Ennepe-Ruhr-Kreis, Nordrhein-Westfalen,51.3481,7.3352,
d5958,5958, LK Hochsauerlandkreis, Nordrhein-Westfalen,51.2949,8.4227,
d5962,5962, LK Märkischer Kreis, Nordrhein-Westfalen,51.2687,7.6929,
d5966,5966, LK Olpe, Nordrhein-Westfalen,51.0738,7.931,
d5970,5970, LK Siegen-Wittgenstein, Nordrhein-Westfalen,50.9938,8.3187,
d5974,5974, LK Soest, Nordrhein-Westfalen,51.567,8.1106,
d5978,5978, LK Unna, Nordrhein-Westfalen,51.5426,7.6853,
d6411,6411, SK Darmstadt, Hessen,49.8706,8.6494,
d6412,6412, SK Frankfurt am Main, Hessen,50.1167,8.6833,
d6413,6413, SK Offenbach, Hessen,50.1,8.7667,
d6414,6414, SK Wiesbaden, Hessen,50.0833,8.25,
d6431,6431, LK Bergstraße, Hessen,49.6161,8.6766,
d6432,6432, LK Darmstadt-Dieburg, Hessen,49.8534,8.7673,
d6433,6433, LK Groß-Gerau, Hessen,49.9257,8.4661,
d6434,6434, LK Hochtaunuskreis, Hessen,50.2431,8.5093,
d6435,6435, LK Main-Kinzig-Kreis, Hessen,50.212,9.1522,
d6436,6436, LK Main-Taunus-Kreis, Hessen,50.1,8.4708,
d6437,6437, LK Odenwaldkreis, Hessen,49.6841,8.9732,
d6438,6438, LK Offenbach, Hessen,50.0352,8.8174,
d6439,6439, LK Rheingau-Taunus-Kreis, Hessen,50.1175,8.0914,
d6440,6440, LK Wetteraukreis, Hessen,50.3447,8.892,
d6531,6531, LK Gießen, Hessen,50.5824,8.7611,
d6532,6532, LK Lahn-Dill-Kreis, Hessen,50.6581,8.3798,
d6533,6533, LK Limburg-Weilburg, Hessen,50.4373,8.1695,
d6534,6534, LK Marburg-Biedenkopf, Hessen,50.8297,8.7261,
d6535,6535, LK Vogelsbergkreis, Hessen,50.6412,9.2588,
d6611,6611, SK Kassel, Hessen,51.3169,9.4925,
d6631,6631, LK Fulda, Hessen,50.5587,9.7587,
d6632,6632, LK Hersfeld-Rotenburg, Hessen,50.8933,9.7767,
d6633,6633, LK Kassel, Hessen,51.4142,9.1471,
d6634,6634, LK Schwalm-Eder-Kreis, Hessen,51.0311,9.3688,
d6635,6635, LK Waldeck-Frankenberg, Hessen,51.1438,8.8416,
d6636,6636, LK Werra-Meißner-Kreis, Hessen,51.1917,9.9719,
d7111,7111, SK Koblenz, Rheinland-Pfalz,50.35,7.6,
d7131,7131, LK Ahrweiler, Rheinland-Pfalz,50.4365,7.005,
d7132,7132, LK Altenkirchen, Rheinland-Pfalz,50.7127,7.6828,
d7133,7133, LK Bad Kreuznach, Rheinland-Pfalz,49.8211,7.6909,
d7134,7134, LK Birkenfeld, Rheinland-Pfalz,49.7212,7.272,
d7135,7135, LK Cochem-Zell, Rheinland-Pfalz,50.141,7.1895,
d7137,7137, LK Mayen-Koblenz, Rheinland-Pfalz,50.3264,7.3222,
d7138,7138, LK Neuwied, Rheinland-Pfalz,50.5612,7.4817,
d7140,7140, LK Rhein-Hunsrück-Kreis, Rheinland-Pfalz,50.0215,7.4891,
d7141,7141, LK Rhein-Lahn-Kreis, Rheinland-Pfalz,50.2651,7.8558,
d7143,7143, LK Westerwaldkreis, Rheinland-Pfalz,50.5569,7.8657,
d7211,7211, SK Trier, Rheinland-Pfalz,49.75,6.6333,
d7231,7231, LK Bernkastel-Wittlich, Rheinland-Pfalz,49.9295,6.9384,
d7232,7232, LK Bitburg-Prüm, Rheinland-Pfalz,50.0375,6.3977,
d7233,7233, LK Vulkaneifel, Rheinland-Pfalz,50.2439,6.8031,
d7235,7235, LK Trier-Saarburg, Rheinland-Pfalz,49.7007,6.7045,
d7311,7311, SK Frankenthal, Rheinland-Pfalz,49.5372,8.355,
d7312,7312, SK Kaiserslautern, Rheinland-Pfalz,49.45,7.75,
d7313,7313, SK Landau i.d.Pfalz, Rheinland-Pfalz,49.2075,8.1133,
d7314,7314, SK Ludwigshafen, Rheinland-Pfalz,49.4811,8.4353,
d7315,7315, SK Mainz, Rheinland-Pfalz,50,8.2711,
d7316,7316, SK Neustadt a.d.Weinstraße, Rheinland-Pfalz,49.3567,8.1378,
d7317,7317, SK Pirmasens, Rheinland-Pfalz,49.2,7.6,
d7318,7318, SK Speyer, Rheinland-Pfalz,49.3297,8.4278,
d7319,7319, SK Worms, Rheinland-Pfalz,49.6356,8.3597,
d7320,7320, SK Zweibrücken, Rheinland-Pfalz,49.25,7.3667,
d7331,7331, LK Alzey-Worms, Rheinland-Pfalz,49.7543,8.1422,
d7332,7332, LK Bad Dürkheim, Rheinland-Pfalz,49.491,8.156,
d7333,7333, LK Donnersbergkreis, Rheinland-Pfalz,49.6393,7.9104,
d7334,7334, LK Germersheim, Rheinland-Pfalz,49.1387,8.2459,
d7335,7335, LK Kaiserslautern, Rheinland-Pfalz,49.4533,7.6607,
d7336,7336, LK Kusel, Rheinland-Pfalz,49.5567,7.4778,
d7337,7337, LK Südliche Weinstraße, Rheinland-Pfalz,49.1851,8.0631,
d7338,7338, LK Rhein-Pfalz-Kreis, Rheinland-Pfalz,49.4456,8.3441,
d7339,7339, LK Mainz-Bingen, Rheinland-Pfalz,49.9033,8.1086,
d7340,7340, LK Südwestpfalz, Rheinland-Pfalz,49.2226,7.6197,
d8111,8111, SK Stuttgart, Baden-Württemberg,48.7717,9.184,
d8115,8115, LK Böblingen, Baden-Württemberg,48.6851,9.0095,
d8116,8116, LK Esslingen, Baden-Württemberg,48.647,9.3712,
d8117,8117, LK Göppingen, Baden-Württemberg,48.6576,9.6829,
d8118,8118, LK Ludwigsburg, Baden-Württemberg,48.9426,9.1496,
d8119,8119, LK Rems-Murr-Kreis, Baden-Württemberg,48.8934,9.4672,
d8121,8121, SK Heilbronn, Baden-Württemberg,49.1403,9.22,
d8125,8125, LK Heilbronn, Baden-Württemberg,49.1675,9.2031,
d8126,8126, LK Hohenlohekreis, Baden-Württemberg,49.2725,9.6057,
d8127,8127, LK Schwäbisch Hall, Baden-Württemberg,49.1253,9.8917,
d8128,8128, LK Main-Tauber-Kreis, Baden-Württemberg,49.5713,9.7001,
d8135,8135, LK Heidenheim, Baden-Württemberg,48.6424,10.1985,
d8136,8136, LK Ostalbkreis, Baden-Württemberg,48.8778,10.0337,
d8211,8211, SK Baden-Baden, Baden-Württemberg,48.75,8.25,
d8212,8212, SK Karlsruhe, Baden-Württemberg,49.0047,8.3858,
d8215,8215, LK Karlsruhe, Baden-Württemberg,49.094,8.5635,
d8216,8216, LK Rastatt, Baden-Württemberg,48.8065,8.2203,
d8221,8221, SK Heidelberg, Baden-Württemberg,49.4167,8.7,
d8222,8222, SK Mannheim, Baden-Württemberg,49.4883,8.4647,
d8225,8225, LK Neckar-Odenwald-Kreis, Baden-Württemberg,49.4221,9.2186,
d8226,8226, LK Rhein-Neckar-Kreis, Baden-Württemberg,49.3736,8.7295,
d8231,8231, SK Pforzheim, Baden-Württemberg,48.8833,8.7,
d8235,8235, LK Calw, Baden-Württemberg,48.688,8.6627,
d8236,8236, LK Enzkreis, Baden-Württemberg,48.91,8.7397,
d8237,8237, LK Freudenstadt, Baden-Württemberg,48.4627,8.5245,
d8311,8311, SK Freiburg i.Breisgau, Baden-Württemberg,48,7.85,
d8315,8315, LK Breisgau-Hochschwarzwald, Baden-Württemberg,47.9412,7.8472,
d8316,8316, LK Emmendingen, Baden-Württemberg,48.1451,7.8375,
d8317,8317, LK Ortenaukreis, Baden-Württemberg,48.4111,8.0062,
d8325,8325, LK Rottweil, Baden-Württemberg,48.2383,8.5163,
d8326,8326, LK Schwarzwald-Baar-Kreis, Baden-Württemberg,48.0483,8.3967,
d8327,8327, LK Tuttlingen, Baden-Württemberg,48.0557,8.799,
d8335,8335, LK Konstanz, Baden-Württemberg,47.7767,8.909,
d8336,8336, LK Lörrach, Baden-Württemberg,47.7036,7.7731,
d8337,8337, LK Waldshut, Baden-Württemberg,47.6729,8.2204,
d8415,8415, LK Reutlingen, Baden-Württemberg,48.4493,9.3462,
d8416,8416, LK Tübingen, Baden-Württemberg,48.4733,9.0133,
d8417,8417, LK Zollernalbkreis, Baden-Württemberg,48.248,8.8893,
d8421,8421, SK Ulm, Baden-Württemberg,48.423,9.9945,
d8425,8425, LK Alb-Donau-Kreis, Baden-Württemberg,48.4011,9.8363,
d8426,8426, LK Biberach, Baden-Württemberg,48.0981,9.7843,
d8435,8435, LK Bodenseekreis, Baden-Württemberg,47.7145,9.379,
d8436,8436, LK Ravensburg, Baden-Württemberg,47.8384,9.6745,
d8437,8437, LK Sigmaringen, Baden-Württemberg,48.0493,9.2253,
d9161,9161, SK Ingolstadt, Bayern,48.7667,11.4333,
d9162,9162, SK München, Bayern,48.1374,11.5755,
d9163,9163, SK Rosenheim, Bayern,47.85,12.1333,
d9171,9171, LK Altötting, Bayern,48.2035,12.7069,
d9172,9172, LK Berchtesgadener Land, Bayern,47.7494,12.9217,
d9173,9173, LK Bad Tölz-Wolfratshausen, Bayern,47.7826,11.4873,
d9174,9174, LK Dachau, Bayern,48.3265,11.3755,
d9175,9175, LK Ebersberg, Bayern,48.0737,11.9066,
d9176,9176, LK Eichstätt, Bayern,48.9167,11.3667,
d9177,9177, LK Erding, Bayern,48.2981,11.9857,
d9178,9178, LK Freising, Bayern,48.4542,11.7472,
d9179,9179, LK Fürstenfeldbruck, Bayern,48.1812,11.2036,
d9180,9180, LK Garmisch-Partenkirchen, Bayern,47.6068,11.15,
d9181,9181, LK Landsberg a.Lech, Bayern,48.0366,10.9462,
d9182,9182, LK Miesbach, Bayern,47.7755,11.7961,
d9183,9183, LK Mühldorf a.Inn, Bayern,48.2409,12.3823,
d9184,9184, LK München, Bayern,48.0925,11.6252,
d9185,9185, LK Neuburg-Schrobenhausen, Bayern,48.6537,11.225,
d9186,9186, LK Pfaffenhofen a.d.Ilm, Bayern,48.6046,11.5185,
d9187,9187, LK Rosenheim, Bayern,47.8946,12.1953,
d9188,9188, LK Starnberg, Bayern,48.0238,11.2726,
d9189,9189, LK Traunstein, Bayern,47.9067,12.5852,
d9190,9190, LK Weilheim-Schongau, Bayern,47.7907,11.0631,
d9261,9261, SK Landshut, Bayern,48.5361,12.1518,
d9262,9262, SK Passau, Bayern,48.5833,13.4833,
d9263,9263, SK Straubing, Bayern,48.8833,12.5667,
d9271,9271, LK Deggendorf, Bayern,48.7814,13.0006,
d9272,9272, LK Freyung-Grafenau, Bayern,48.8167,13.4813,
d9273,9273, LK Kelheim, Bayern,48.809,11.8813,
d9274,9274, LK Landshut, Bayern,48.5457,12.2081,
d9275,9275, LK Passau, Bayern,48.5665,13.3627,
d9276,9276, LK Regen, Bayern,49.0165,13.066,
d9277,9277, LK Rottal-Inn, Bayern,48.4032,12.8774,
d9278,9278, LK Straubing-Bogen, Bayern,48.927,12.6266,
d9279,9279, LK Dingolfing-Landau, Bayern,48.6367,12.5878,
d9361,9361, SK Amberg, Bayern,49.4414,11.8622,
d9362,9362, SK Regensburg, Bayern,49.015,12.0956,
d9363,9363, SK Weiden i.d.OPf., Bayern,49.6775,12.1567,
d9371,9371, LK Amberg-Sulzbach, Bayern,49.4833,11.8167,
d9372,9372, LK Cham, Bayern,49.2286,12.6939,
d9373,9373, LK Neumarkt i.d.OPf., Bayern,49.2159,11.533,
d9374,9374, LK Neustadt a.d.Waldnaab, Bayern,49.6952,12.1339,
d9375,9375, LK Regensburg, Bayern,49.0125,12.141,
d9376,9376, LK Schwandorf, Bayern,49.4055,12.2725,
d9377,9377, LK Tirschenreuth, Bayern,49.9088,12.1409,
d9461,9461, SK Bamberg, Bayern,49.8943,10.8856,
d9462,9462, SK Bayreuth, Bayern,49.9481,11.5783,
d9463,9463, SK Coburg, Bayern,50.2667,10.9667,
d9464,9464, SK Hof, Bayern,50.3167,11.9167,
d9471,9471, LK Bamberg, Bayern,49.8943,10.8856,
d9472,9472, LK Bayreuth, Bayern,49.9028,11.5772,
d9473,9473, LK Coburg, Bayern,50.251,10.9863,
d9474,9474, LK Forchheim, Bayern,49.6985,11.1565,
d9475,9475, LK Hof, Bayern,50.287,11.8167,
d9476,9476, LK Kronach, Bayern,50.3232,11.3556,
d9477,9477, LK Kulmbach, Bayern,50.1076,11.5197,
d9478,9478, LK Lichtenfels, Bayern,50.1364,11.1455,
d9479,9479, LK Wunsiedel i.Fichtelgebirge, Bayern,50.0836,12.0587,
d9561,9561, SK Ansbach, Bayern,49.3,10.5833,
d9562,9562, SK Erlangen, Bayern,49.5897,11.0039,
d9563,9563, SK Fürth, Bayern,49.4667,10.9667,
d9564,9564, SK Nürnberg, Bayern,49.4478,11.0683,
d9565,9565, SK Schwabach, Bayern,49.3292,11.0256,
d9571,9571, LK Ansbach, Bayern,49.2402,10.4635,
d9572,9572, LK Erlangen-Höchstadt, Bayern,49.6404,10.9301,
d9573,9573, LK Fürth, Bayern,49.4667,10.8726,
d9574,9574, LK Nürnberger Land, Bayern,49.4924,11.3745,
d9575,9575, LK Neustadt a.d.Aisch-Bad Windsheim, Bayern,49.5702,10.4715,
d9576,9576, LK Roth, Bayern,49.2235,11.0885,
d9577,9577, LK Weißenburg-Gunzenhausen, Bayern,49.0432,10.8988,
d9661,9661, SK Aschaffenburg, Bayern,49.9739,9.1492,
d9662,9662, SK Schweinfurt, Bayern,50.05,10.2333,
d9663,9663, SK Würzburg, Bayern,49.7878,9.9361,
d9671,9671, LK Aschaffenburg, Bayern,50.0157,9.2189,
d9672,9672, LK Bad Kissingen, Bayern,50.2194,9.9875,
d9673,9673, LK Rhön-Grabfeld, Bayern,50.365,10.2766,
d9674,9674, LK Haßberge, Bayern,50.0592,10.6107,
d9675,9675, LK Kitzingen, Bayern,49.7417,10.2308,
d9676,9676, LK Miltenberg, Bayern,49.7784,9.2383,
d9677,9677, LK Main-Spessart, Bayern,49.9691,9.6404,
d9678,9678, LK Schweinfurt, Bayern,49.9897,10.2517,
d9679,9679, LK Würzburg, Bayern,49.747,9.9262,
d9761,9761, SK Augsburg, Bayern,48.3667,10.8833,
d9762,9762, SK Kaufbeuren, Bayern,47.8833,10.6167,
d9763,9763, SK Kempten, Bayern,47.7167,10.3167,
d9764,9764, SK Memmingen, Bayern,47.9833,10.1667,
d9771,9771, LK Aichach-Friedberg, Bayern,48.4111,11.0451,
d9772,9772, LK Augsburg, Bayern,48.3656,10.7547,
d9773,9773, LK Dillingen a.d.Donau, Bayern,48.592,10.4981,
d9774,9774, LK Günzburg, Bayern,48.3519,10.381,
d9775,9775, LK Neu-Ulm, Bayern,48.2755,10.1304,
d9776,9776, LK Lindau, Bayern,47.6009,9.8491,
d9777,9777, LK Ostallgäu, Bayern,47.8026,10.6259,
d9778,9778, LK Unterallgäu, Bayern,48.034,10.35,
d9779,9779, LK Donau-Ries, Bayern,48.8149,10.6974,
d9780,9780, LK Oberallgäu, Bayern,47.6131,10.2708,
d10041,10041, LK Stadtverband Saarbrücken, Saarland,49.27,6.97,
d10042,10042, LK Merzig-Wadern, Saarland,49.4881,6.681,
d10043,10043, LK Neunkirchen, Saarland,49.3619,7.0976,
d10044,10044, LK Saarlouis, Saarland,49.3333,6.7795,
d10045,10045, LK Saar-Pfalz-Kreis, Saarland,49.2547,7.2238,
d10046,10046, LK Sankt Wendel, Saarland,49.5229,7.1042,
d11000,11000, Berlin, Berlin,52.5246,13.4051,"represents all Berlin, includes 110XX"
d11001,11001, SK Berlin Mitte, Berlin,52.5222,13.3801,
d11002,11002, SK Berlin Friedrichshain-Kreuzberg, Berlin,52.4966,13.3933,
d11003,11003, SK Berlin Pankow, Berlin,52.5977,13.3653,
d11004,11004, SK Berlin Charlottenburg-Wilmersdorf, Berlin,52.508,13.2289,
d11005,11005, SK Berlin Spandau, Berlin,52.5192,13.1257,
d11006,11006, SK Berlin Steglitz-Zehlendorf, Berlin,52.4295,13.16,
d11007,11007, SK Berlin Tempelhof-Schöneberg, Berlin,52.4406,13.3037,
d11008,11008, SK Berlin Neukölln, Berlin,52.4459,13.3918,
d11009,11009, SK Berlin Treptow-Köpenick, Berlin,52.4179,13.5303,
d11010,11010, SK Berlin Marzahn-Hellersdorf, Berlin,52.5225,13.5176,
d11011,11011, SK Berlin Lichtenberg, Berlin,52.5322,13.4419,
d11012,11012, SK Berlin Reinickendorf, Berlin,52.6048,13.2252,
d12051,12051, SK Brandenburg a.d.Havel, Brandenburg,52.4257,12.6051,
d12052,12052, SK Cottbus, Brandenburg,51.7551,14.3331,
d12053,12053, SK Frankfurt (Oder), Brandenburg,52.344,14.5402,
d12054,12054, SK Potsdam, Brandenburg,52.4459,13.0146,
d12060,12060, LK Barnim, Brandenburg,52.7725,13.6915,
d12061,12061, LK Dahme-Spreewald, Brandenburg,52.0742,13.8117,
d12062,12062, LK Elbe-Elster, Brandenburg,51.6233,13.5472,
d12063,12063, LK Havelland, Brandenburg,52.6074,12.6673,
d12064,12064, LK Märkisch-Oderland, Brandenburg,52.6143,14.1829,
d12065,12065, LK Oberhavel, Brandenburg,52.8988,13.2651,
d12066,12066, LK Oberspreewald-Lausitz, Brandenburg,51.5701,13.9705,
d12067,12067, LK Oder-Spree, Brandenburg,52.2289,14.2328,
d12068,12068, LK Ostprignitz-Ruppin, Brandenburg,53.0079,12.6439,
d12069,12069, LK Potsdam-Mittelmark, Brandenburg,52.2933,12.7823,
d12070,12070, LK Prignitz, Brandenburg,53.0847,12.0206,
d12071,12071, LK Spree-Neiße, Brandenburg,51.7542,14.5587,
d12072,12072, LK Teltow-Fläming, Brandenburg,52.1429,13.3526,
d12073,12073, LK Uckermark, Brandenburg,53.1566,13.9348,
d13003,13003, SK Rostock, Mecklenburg-Vorpommern,54.084,12.0994,
d13004,13004, SK Schwerin, Mecklenburg-Vorpommern,53.6326,11.4141,
d13071,13071, LK Mecklenburgische Seenplatte, Mecklenburg-Vorpommern,53.5666,13.2695,
d13072,13072, LK Rostock, Mecklenburg-Vorpommern,53.8047,12.1869,
d13073,13073, LK Vorpommern-Rügen, Mecklenburg-Vorpommern,54.3536,13.3646,
d13074,13074, LK Nordwestmecklenburg, Mecklenburg-Vorpommern,53.8884,11.4622,
d13075,13075, LK Vorpommern-Greifswald, Mecklenburg-Vorpommern,54.0888,13.3947,
d13076,13076, LK Ludwigslust-Parchim, Mecklenburg-Vorpommern,53.5364,11.8458,
d14511,14511, SK Chemnitz, Sachsen,50.8333,12.9167,
d14521,14521, LK Erzgebirgskreis, Sachsen,50.5735,12.9833,
d14522,14522, LK Mittelsachsen, Sachsen,50.8569,13.3159,
d14523,14523, LK Vogtlandkreis, Sachsen,50.4722,12.2695,
d14524,14524, LK Zwickau, Sachsen,50.7333,12.5,
d14612,14612, SK Dresden, Sachsen,51.0493,13.6987,
d14625,14625, LK Bautzen, Sachsen,51.1556,14.3739,
d14626,14626, LK Görlitz, Sachsen,51.1526,14.9699,
d14627,14627, LK Meißen, Sachsen,51.1374,13.4771,
d14628,14628, LK Sächsische Schweiz-Osterzgebirge, Sachsen,50.9459,14.05,
d14713,14713, SK Leipzig, Sachsen,51.3493,12.3939,
d14729,14729, LK Leipzig, Sachsen,51.17,12.65,
d14730,14730, LK Nordsachsen, Sachsen,51.4671,12.7665,
d15001,15001, SK Dessau-Roßlau, Sachsen-Anhalt,51.8425,12.2305,
d15002,15002, SK Halle, Sachsen-Anhalt,51.4803,11.9689,
d15003,15003, SK Magdeburg, Sachsen-Anhalt,52.132,11.6266,
d15081,15081, LK Altmarkkreis Salzwedel, Sachsen-Anhalt,52.6911,11.2304,
d15082,15082, LK Anhalt-Bitterfeld, Sachsen-Anhalt,51.6229,12.2677,
d15083,15083, LK Börde, Sachsen-Anhalt,52.3217,11.5398,
d15084,15084, LK Burgenlandkreis, Sachsen-Anhalt,51.1259,11.8577,
d15085,15085, LK Harz, Sachsen-Anhalt,51.8122,10.7044,
d15086,15086, LK Jerichower Land, Sachsen-Anhalt,52.2598,11.9891,
d15087,15087, LK Mansfeld-Südharz, Sachsen-Anhalt,51.5779,11.5142,
d15088,15088, LK Saalekreis, Sachsen-Anhalt,51.5292,11.9383,
d15089,15089, LK Salzlandkreis, Sachsen-Anhalt,51.9467,11.7732,
d15090,15090, LK Stendal, Sachsen-Anhalt,52.6781,11.8103,
d15091,15091, LK Wittenberg, Sachsen-Anhalt,51.8744,12.6277,
d16051,16051, SK Erfurt, Thüringen,50.9833,11.0333,
d16052,16052, SK Gera, Thüringen,50.8667,12.0833,
d16053,16053, SK Jena, Thüringen,50.9333,11.5833,
d16054,16054, SK Suhl, Thüringen,50.6,10.7,
d16055,16055, SK Weimar, Thüringen,50.9833,11.3167,
d16056,16056, SK Eisenach, Thüringen,50.9833,10.3167,
d16061,16061, LK Eichsfeld, Thüringen,51.3752,10.2203,
d16062,16062, LK Nordhausen, Thüringen,51.4994,10.791,
d16063,16063, LK Wartburgkreis, Thüringen,50.8567,10.184,
d16064,16064, LK Unstrut-Hainich-Kreis, Thüringen,51.1825,10.5855,
d16065,16065, LK Kyffhäuserkreis, Thüringen,51.3083,11.0654,
d16066,16066, LK Schmalkalden-Meiningen, Thüringen,50.6061,10.3961,
d16067,16067, LK Gotha, Thüringen,50.9382,10.703,
d16068,16068, LK Sömmerda, Thüringen,51.1441,11.1453,
d16069,16069, LK Hildburghausen, Thüringen,50.442,10.6845,
d16070,16070, LK Ilm-Kreis, Thüringen,50.7294,10.9591,
d16071,16071, LK Weimarer Land, Thüringen,51.0025,11.3758,
d16072,16072, LK Sonneberg, Thüringen,50.4274,11.1211,
d16073,16073, LK Saalfeld-Rudolstadt, Thüringen,50.6187,11.2881,
d16074,16074, LK Saale-Holzland-Kreis, Thüringen,50.9043,11.7319,
d16075,16075, LK Saale-Orla-Kreis, Thüringen,50.6237,11.7202,
d16076,16076, LK Greiz, Thüringen,50.7786,12.0762,
d16077,16077, LK Altenburger Land, Thüringen,50.9579,12.3802,